City_ID,City,Country,Lat,Lng,Max Temp,Humidity,Cloudiness,Wind Speed,Current Description,Date
0,Victoria,HK,22.2855,114.1577,94.96,76,14,8.99,few clouds,2022-07-25 01:50:03
1,San Jose,US,37.3394,-121.895,85.28,53,0,13.8,clear sky,2022-07-25 01:50:03
2,Rikitea,PF,-23.1203,-134.9692,75.45,80,21,15.52,few clouds,2022-07-25 01:54:17
3,Saint-Philippe,RE,-21.3585,55.7679,63.99,76,35,5.97,scattered clouds,2022-07-25 01:49:57
4,Eyl,SO,7.9803,49.8164,75.85,70,29,21.3,scattered clouds,2022-07-25 01:54:18
5,Qianan,CN,44.9932,124.0581,77.36,64,20,5.39,few clouds,2022-07-25 01:54:18
6,Jamestown,US,42.097,-79.2353,74.01,88,20,8.05,few clouds,2022-07-25 01:53:25
7,Upernavik,GL,72.7868,-56.1549,38.03,98,95,9.26,overcast clouds,2022-07-25 01:54:20
8,Klaksvik,FO,62.2266,-6.589,49.12,91,93,21.18,overcast clouds,2022-07-25 01:54:21
9,Nhulunbuy,AU,-12.2333,136.7667,83.01,61,16,13.8,few clouds,2022-07-25 01:54:21
10,Ushuaia,AR,-54.8,-68.3,35.26,60,0,5.75,clear sky,2022-07-25 01:54:03
11,Bismarck,US,46.8083,-100.7837,73.65,51,0,5.75,clear sky,2022-07-25 01:54:22
12,Grindavik,IS,63.8424,-22.4338,49.95,100,75,6.91,light intensity drizzle,2022-07-25 01:54:23
13,Matara,LK,5.9485,80.5353,79.43,82,86,13.44,overcast clouds,2022-07-25 01:54:23
14,Bredasdorp,ZA,-34.5322,20.0403,45.93,88,0,6.06,clear sky,2022-07-25 01:51:50
15,East London,ZA,-33.0153,27.9116,58.89,56,100,5.41,overcast clouds,2022-07-25 01:54:25
16,Portree,GB,57.4129,-6.1942,56.52,98,100,5.57,overcast clouds,2022-07-25 01:54:26
17,Fredericksburg,US,38.3032,-77.4605,87.15,68,0,9.22,clear sky,2022-07-25 01:50:51
18,Albany,US,42.6001,-73.9662,74.73,86,99,8.01,overcast clouds,2022-07-25 01:54:26
19,Busselton,AU,-33.65,115.3333,60.8,70,69,19.17,broken clouds,2022-07-25 01:49:55
20,Naze,JP,28.3667,129.4833,86.92,78,20,1.1,few clouds,2022-07-25 01:54:29
21,Provideniya,RU,64.3833,-173.3,48.36,76,75,4.47,broken clouds,2022-07-25 01:53:24
22,Komsomolskiy,UZ,40.4272,71.7189,86.72,19,0,9.22,clear sky,2022-07-25 01:54:02
23,Yellowknife,CA,62.456,-114.3525,61.32,94,75,11.5,light intensity shower rain,2022-07-25 01:54:31
24,Mossendjo,CG,-2.9506,12.7261,65.35,94,97,3.47,light rain,2022-07-25 01:54:33
25,Nikolskoye,RU,59.7035,30.7861,62.49,98,44,3.0,scattered clouds,2022-07-25 01:54:34
26,Chokurdakh,RU,70.6333,147.9167,70.75,32,35,11.7,scattered clouds,2022-07-25 01:54:35
27,Pimentel,PE,-6.8367,-79.9342,62.62,90,100,12.8,overcast clouds,2022-07-25 01:54:35
28,Turukhansk,RU,65.8167,87.9833,63.16,61,30,16.84,scattered clouds,2022-07-25 01:54:36
29,Burnie,AU,-41.0667,145.9167,55.92,83,91,13.31,overcast clouds,2022-07-25 01:54:36
30,Atuona,PF,-9.8,-139.0333,76.64,63,3,13.44,clear sky,2022-07-25 01:50:16
31,Livingston,GB,55.9029,-3.5226,59.85,95,75,2.3,broken clouds,2022-07-25 01:54:37
32,Huicungo,PE,-7.2833,-76.8,71.22,97,100,1.9,overcast clouds,2022-07-25 01:54:38
33,Imamoglu,TR,37.2651,35.6572,72.63,41,0,7.36,clear sky,2022-07-25 01:54:38
34,Kununurra,AU,-15.7667,128.7333,78.78,22,15,3.44,few clouds,2022-07-25 01:54:39
35,Olafsvik,IS,64.8945,-23.7142,51.21,83,87,7.45,overcast clouds,2022-07-25 01:54:39
36,Merauke,ID,-8.4667,140.3333,82.44,71,61,14.5,broken clouds,2022-07-25 01:54:40
37,Saskylakh,RU,71.9167,114.0833,72.9,52,19,10.89,few clouds,2022-07-25 01:54:41
38,Punta Arenas,CL,-53.15,-70.9167,33.91,80,0,8.05,clear sky,2022-07-25 01:54:26
39,Hanyang,CN,32.1371,105.5126,80.15,71,64,1.19,broken clouds,2022-07-25 01:54:42
40,Poum,NC,-20.2333,164.0167,75.07,64,0,13.44,clear sky,2022-07-25 01:54:43
41,Arraial Do Cabo,BR,-22.9661,-42.0278,70.84,88,29,20.31,scattered clouds,2022-07-25 01:54:43
42,Collie,AU,-33.3667,116.15,55.56,87,61,9.98,broken clouds,2022-07-25 01:54:44
43,Bluff,NZ,-46.6,168.3333,43.81,78,35,13.4,scattered clouds,2022-07-25 01:52:10
44,Sabzevar,IR,36.2126,57.6819,81.68,30,0,16.11,clear sky,2022-07-25 01:54:45
45,Tawang,IN,27.5833,91.8667,60.53,87,100,3.02,overcast clouds,2022-07-25 01:54:45
46,Liverpool,GB,53.4106,-2.9779,62.71,85,75,18.41,broken clouds,2022-07-25 01:54:46
47,Kodiak,US,57.79,-152.4072,54.91,94,100,5.75,mist,2022-07-25 01:54:46
48,Rio Gallegos,AR,-51.6226,-69.2181,24.85,80,0,9.22,clear sky,2022-07-25 01:54:47
49,Craigieburn,AU,-37.6,144.95,60.78,74,75,8.05,moderate rain,2022-07-25 01:54:48
50,Carnarvon,AU,-24.8667,113.6333,61.07,42,0,16.51,clear sky,2022-07-25 01:51:18
51,Qaanaaq,GL,77.484,-69.3632,40.05,93,100,1.21,overcast clouds,2022-07-25 01:54:49
52,Meulaboh,ID,4.1363,96.1285,78.69,85,97,3.51,overcast clouds,2022-07-25 01:54:49
53,Ginda,IN,30.6945,78.4932,66.54,97,100,1.05,overcast clouds,2022-07-25 01:54:50
54,Castro,BR,-24.7911,-50.0119,58.21,72,100,3.22,overcast clouds,2022-07-25 01:50:17
55,Mangan,IN,27.5167,88.5333,79.56,80,69,2.46,broken clouds,2022-07-25 01:54:51
56,Georgetown,MY,5.4112,100.3354,82.33,90,20,3.44,few clouds,2022-07-25 01:54:52
57,Sarkand,KZ,45.41,79.9186,77.32,28,0,4.32,clear sky,2022-07-25 01:54:52
58,Tecoanapa,MX,16.5167,-98.75,79.07,85,100,3.89,overcast clouds,2022-07-25 01:54:53
59,Mataura,NZ,-46.1927,168.8643,43.48,81,69,4.7,broken clouds,2022-07-25 01:52:07
60,Hermanus,ZA,-34.4187,19.2345,49.03,82,0,11.3,clear sky,2022-07-25 01:53:25
61,Warwick,US,41.7001,-71.4162,83.52,79,20,10.36,few clouds,2022-07-25 01:54:55
62,Puerto Ayora,EC,-0.7393,-90.3518,70.56,91,100,5.99,overcast clouds,2022-07-25 01:51:33
63,Narsaq,GL,60.9167,-46.05,49.71,70,100,4.72,overcast clouds,2022-07-25 01:54:56
64,Lorengau,PG,-2.0226,147.2712,85.75,67,63,9.8,broken clouds,2022-07-25 01:54:56
65,Necochea,AR,-38.5473,-58.7368,48.31,88,98,8.99,overcast clouds,2022-07-25 01:54:57
66,Jumla,NP,29.2747,82.1838,62.96,92,95,0.63,overcast clouds,2022-07-25 01:54:58
67,Kaeo,NZ,-35.1,173.7833,62.33,97,100,20.89,light rain,2022-07-25 01:54:58
68,Agnibilekrou,CI,7.1344,-3.2047,67.6,95,98,2.98,overcast clouds,2022-07-25 01:54:59
69,Chupa,RU,66.27,33.0549,51.12,80,17,3.74,few clouds,2022-07-25 01:55:00
70,Nur,PL,52.6683,22.3221,56.59,91,100,3.51,overcast clouds,2022-07-25 01:55:00
71,Barrow,US,71.2906,-156.7887,42.82,87,100,11.5,overcast clouds,2022-07-25 01:51:21
72,Ibra,OM,22.6906,58.5334,81.79,64,44,3.8,scattered clouds,2022-07-25 01:55:01
73,Srandakan,ID,-7.9386,110.2506,78.21,63,98,15.26,overcast clouds,2022-07-25 01:55:02
74,Ponta Do Sol,PT,32.6667,-17.1,83.12,38,6,3.89,clear sky,2022-07-25 01:54:21
75,Vaini,TO,-21.2,-175.2,77.16,78,20,8.05,few clouds,2022-07-25 01:55:03
76,Esperance,AU,-33.8667,121.9,55.83,57,0,16.4,clear sky,2022-07-25 01:55:04
77,Port Alfred,ZA,-33.5906,26.891,57.81,59,63,4.41,broken clouds,2022-07-25 01:55:04
78,Laureles,US,26.1092,-97.4941,87.94,60,1,11.99,clear sky,2022-07-25 01:55:05
79,Guerrero Negro,MX,27.9769,-114.0611,70.12,76,16,13.94,few clouds,2022-07-25 01:55:05
80,Avarua,CK,-21.2078,-159.775,69.85,73,75,4.61,broken clouds,2022-07-25 01:55:06
81,Sakakah,SA,29.9697,40.2064,81.97,17,3,5.17,clear sky,2022-07-25 01:55:06
82,Thompson,CA,55.7435,-97.8558,71.76,35,20,2.3,few clouds,2022-07-25 01:52:30
83,Sawtell,AU,-30.3833,153.1,64.42,59,0,8.05,clear sky,2022-07-25 01:55:08
84,Salaga,GH,8.5508,-0.5188,71.8,89,40,3.51,scattered clouds,2022-07-25 01:55:08
85,Kahului,US,20.8947,-156.47,80.83,78,45,5.99,scattered clouds,2022-07-25 01:55:09
86,Berezovyy,RU,51.6667,135.7,83.97,49,7,2.48,clear sky,2022-07-25 01:55:09
87,Hasaki,JP,35.7333,140.8333,95.29,81,77,15.75,broken clouds,2022-07-25 01:55:10
88,Saint George,US,37.1041,-113.5841,97.39,24,0,10.36,clear sky,2022-07-25 01:51:01
89,Cuamba,MZ,-14.8031,36.5372,60.15,74,6,1.19,clear sky,2022-07-25 01:55:11
90,Cape Town,ZA,-33.9258,18.4232,55.38,81,0,1.99,clear sky,2022-07-25 01:55:11
91,Flinders,AU,-34.5833,150.8552,66.18,71,69,4.0,broken clouds,2022-07-25 01:55:12
92,Jiuquan,CN,39.7432,98.5174,83.25,23,1,6.58,clear sky,2022-07-25 01:55:13
93,Leningradskiy,RU,69.3833,178.4167,35.71,92,100,4.43,overcast clouds,2022-07-25 01:52:11
94,Hobart,AU,-42.8794,147.3294,57.25,82,75,1.01,broken clouds,2022-07-25 01:52:43
95,Vanimo,PG,-2.6741,141.3028,84.11,73,60,6.58,broken clouds,2022-07-25 01:55:14
96,Laguna,US,38.421,-121.4238,101.44,16,0,9.22,clear sky,2022-07-25 01:55:15
97,Cidreira,BR,-30.1811,-50.2056,63.37,89,100,5.99,overcast clouds,2022-07-25 01:52:53
98,Bengkulu,ID,-3.8004,102.2655,78.93,84,100,7.31,moderate rain,2022-07-25 01:55:16
99,Paamiut,GL,61.994,-49.6678,44.15,81,11,1.92,few clouds,2022-07-25 01:52:13
100,Sinnamary,GF,5.3833,-52.95,77.65,89,66,8.37,broken clouds,2022-07-25 01:55:17
101,Guayama,PR,17.9841,-66.1138,80.82,87,8,1.01,clear sky,2022-07-25 01:55:17
102,Cabedelo,BR,-6.9811,-34.8339,72.27,80,34,14.14,scattered clouds,2022-07-25 01:55:18
103,Tilichiki,RU,60.4667,166.1,59.09,59,47,10.56,scattered clouds,2022-07-25 01:55:18
104,Butaritari,KI,3.0707,172.7902,82.49,69,15,20.42,few clouds,2022-07-25 01:54:35
105,Sao Miguel,BR,-5.4667,-35.3667,72.37,72,44,17.56,scattered clouds,2022-07-25 01:55:20
106,Tarata,BO,-17.6167,-66.0167,62.02,68,5,4.61,clear sky,2022-07-25 01:55:21
107,Paraiso,CR,9.8383,-83.8656,65.95,95,70,3.09,broken clouds,2022-07-25 01:55:21
108,Chuy,UY,-33.6971,-53.4616,57.31,98,100,5.32,overcast clouds,2022-07-25 01:55:22
109,Ipixuna,BR,-1.7625,-48.8043,78.42,83,100,4.38,overcast clouds,2022-07-25 01:55:22
110,Herat,AF,34.5,62.0,80.46,24,0,9.55,clear sky,2022-07-25 01:55:23
111,Umm Kaddadah,SD,13.6017,26.6876,82.92,56,100,17.63,overcast clouds,2022-07-25 01:55:24
112,Khatanga,RU,71.9667,102.5,70.07,70,98,14.41,overcast clouds,2022-07-25 01:55:24
113,Mayumba,GA,-3.432,10.6554,70.74,88,100,1.97,overcast clouds,2022-07-25 01:55:25
114,Shchebetovka,UA,44.9333,35.15,70.27,60,23,6.35,few clouds,2022-07-25 01:55:26
115,Brownsville,US,25.9018,-97.4975,87.1,74,2,7.0,clear sky,2022-07-25 01:55:23
116,Norman Wells,CA,65.282,-126.8329,68.04,49,75,4.61,broken clouds,2022-07-25 01:55:27
117,Dali,CN,25.7,100.1833,65.61,88,98,1.95,overcast clouds,2022-07-25 01:55:27
118,Samarai,PG,-10.6167,150.6667,79.79,82,51,14.79,broken clouds,2022-07-25 01:55:28
119,Lebu,CL,-37.6167,-73.65,53.71,91,100,15.41,overcast clouds,2022-07-25 01:52:15
120,Souillac,MU,-20.5167,57.5167,64.78,88,75,3.44,broken clouds,2022-07-25 01:55:29
121,Kenai,US,60.5544,-151.2583,66.29,55,100,4.61,overcast clouds,2022-07-25 01:55:30
122,Vardo,NO,70.3705,31.1107,48.18,87,22,5.75,few clouds,2022-07-25 01:55:31
123,Tasiilaq,GL,65.6145,-37.6368,38.41,87,93,3.94,overcast clouds,2022-07-25 01:51:32
124,Faanui,PF,-16.4833,-151.75,78.49,77,19,12.48,light rain,2022-07-25 01:55:32
125,Pevek,RU,69.7008,170.3133,36.36,88,93,2.3,overcast clouds,2022-07-25 01:55:32
126,Kjopsvik,NO,68.097,16.3742,52.18,78,100,8.08,overcast clouds,2022-07-25 01:55:33
127,Oranjemund,NA,-28.55,16.4333,61.88,31,0,12.03,clear sky,2022-07-25 01:54:33
128,Mar Del Plata,AR,-38.0023,-57.5575,51.1,98,100,9.22,mist,2022-07-25 01:53:29
129,Graham,US,47.0529,-122.2943,82.89,49,0,14.97,clear sky,2022-07-25 01:53:28
130,Ouro Preto Do Oeste,BR,-10.7481,-62.2158,75.85,42,14,1.72,few clouds,2022-07-25 01:55:37
131,Pumiao,CN,22.75,108.4833,86.4,65,0,2.8,clear sky,2022-07-25 01:55:38
132,Taoudenni,ML,22.6783,-3.9836,96.69,23,96,9.66,light rain,2022-07-25 01:55:39
133,Mahibadhoo,MV,3.7833,72.9667,82.26,71,86,11.88,overcast clouds,2022-07-25 01:55:40
134,Vestmannaeyjar,IS,63.4427,-20.2734,51.6,87,97,10.31,overcast clouds,2022-07-25 01:55:40
135,Jonesboro,US,35.8423,-90.7043,89.42,59,24,10.0,few clouds,2022-07-25 01:55:41
136,Cavalcante,BR,-13.7975,-47.4583,67.26,51,44,4.65,scattered clouds,2022-07-25 01:55:41
137,Coquimbo,CL,-29.9533,-71.3436,53.33,82,100,2.3,overcast clouds,2022-07-25 01:55:41
138,Itaqui,BR,-29.1253,-56.5531,68.18,88,7,8.57,clear sky,2022-07-25 01:55:42
139,Quatre Cocos,MU,-20.2078,57.7625,64.51,73,12,7.23,few clouds,2022-07-25 01:55:43
140,Beidao,CN,34.5686,105.8933,77.36,68,91,5.68,overcast clouds,2022-07-25 01:55:28
141,Tiksi,RU,71.6872,128.8694,48.94,72,52,3.42,broken clouds,2022-07-25 01:52:49
142,New Norfolk,AU,-42.7826,147.0587,56.91,70,61,3.69,broken clouds,2022-07-25 01:55:44
143,Sitka,US,57.0531,-135.33,56.61,99,100,5.23,light rain,2022-07-25 01:55:45
144,Danjiangkou,CN,32.5428,111.5086,82.44,81,100,3.27,overcast clouds,2022-07-25 01:55:45
145,Port Elizabeth,ZA,-33.918,25.5701,53.1,100,20,4.61,few clouds,2022-07-25 01:55:46
146,Shelburne,CA,44.0787,-80.2041,70.59,98,43,11.36,scattered clouds,2022-07-25 01:52:12
147,Taltal,CL,-25.4,-70.4833,56.52,86,13,3.36,few clouds,2022-07-25 01:55:47
148,Hofn,IS,64.2539,-15.2082,50.38,92,100,4.9,overcast clouds,2022-07-25 01:55:49
149,Fuyang,CN,32.9,115.8167,86.76,64,0,7.99,clear sky,2022-07-25 01:55:49
150,Tuktoyaktuk,CA,69.4541,-133.0374,48.2,81,75,9.22,broken clouds,2022-07-25 01:51:08
151,Luanda,AO,-8.8368,13.2343,69.8,94,100,2.3,mist,2022-07-25 01:55:50
152,Kalawit,PH,8.0667,122.5167,82.62,80,100,5.84,overcast clouds,2022-07-25 01:55:51
153,Hambantota,LK,6.1241,81.1185,75.54,100,75,1.14,broken clouds,2022-07-25 01:55:51
154,Kavaratti,IN,10.5669,72.642,81.64,75,100,13.85,overcast clouds,2022-07-25 01:55:52
155,Ancud,CL,-41.8697,-73.8203,47.23,94,96,7.78,overcast clouds,2022-07-25 01:55:52
156,Terrace,CA,54.5163,-128.6035,62.51,94,100,12.66,light rain,2022-07-25 01:55:53
157,Tabas,IR,33.5959,56.9244,89.82,22,0,4.61,clear sky,2022-07-25 01:55:53
158,Lasa,IT,46.6166,10.7002,66.69,93,1,2.04,clear sky,2022-07-25 01:55:25
159,Lufkin,US,31.3382,-94.7291,91.31,60,0,9.22,clear sky,2022-07-25 01:51:38
160,Hilo,US,19.7297,-155.09,86.29,67,0,9.22,clear sky,2022-07-25 01:51:46
161,Rundu,NA,-17.9333,19.7667,56.25,44,0,6.31,clear sky,2022-07-25 01:55:55
162,Aklavik,CA,68.2191,-135.0107,62.29,51,31,6.38,scattered clouds,2022-07-25 01:55:56
163,Kapaa,US,22.0752,-159.319,84.52,67,20,14.97,few clouds,2022-07-25 01:52:35
164,Rovenki,UA,48.0833,39.3776,64.65,61,21,3.96,few clouds,2022-07-25 01:55:56
165,Vila Velha,BR,-20.3297,-40.2925,67.95,90,75,3.44,broken clouds,2022-07-25 01:55:57
166,Kaitangata,NZ,-46.2817,169.8464,45.25,92,100,8.95,overcast clouds,2022-07-25 01:55:58
167,Vao,NC,-22.6667,167.4833,71.92,73,78,12.62,broken clouds,2022-07-25 01:55:58
168,Byron Bay,AU,-28.65,153.6167,67.95,65,1,5.97,clear sky,2022-07-25 01:55:59
169,Port Hedland,AU,-20.3167,118.5667,71.65,30,0,19.57,clear sky,2022-07-25 01:55:59
170,Mount Gambier,AU,-37.8333,140.7667,57.11,88,100,14.97,overcast clouds,2022-07-25 01:56:00
171,Keti Bandar,PK,24.1447,67.4497,79.25,94,100,18.86,very heavy rain,2022-07-25 01:56:00
172,Baghdad,IQ,33.3406,44.4009,82.31,21,0,4.61,clear sky,2022-07-25 01:53:44
173,Adrar,MR,20.5022,-10.0711,92.37,11,2,14.05,clear sky,2022-07-25 01:56:01
174,Yinchuan,CN,38.4681,106.2731,82.78,40,4,5.53,clear sky,2022-07-25 01:56:02
175,Namatanai,PG,-3.6667,152.4333,83.01,76,25,9.51,light rain,2022-07-25 01:56:02
176,Saldanha,ZA,-33.0117,17.9442,50.9,61,0,9.75,clear sky,2022-07-25 01:56:03
177,Srednekolymsk,RU,67.45,153.6833,72.64,29,100,10.74,overcast clouds,2022-07-25 01:53:39
178,Caruray,PH,10.3094,119.0128,86.68,66,86,0.13,overcast clouds,2022-07-25 01:56:04
179,Mandalgovi,MN,45.7625,106.2708,70.23,38,6,13.49,light rain,2022-07-25 01:56:04
180,Jieshi,CN,22.8134,115.8257,87.6,74,16,6.85,few clouds,2022-07-25 01:56:05
181,Cabra,ES,37.4725,-4.4421,87.66,20,34,3.33,scattered clouds,2022-07-25 01:56:05
182,Ribeira Grande,PT,38.5167,-28.7,74.05,90,11,5.23,few clouds,2022-07-25 01:56:06
183,Sechura,PE,-5.5569,-80.8222,64.67,87,71,12.88,broken clouds,2022-07-25 01:56:06
184,Geraldton,AU,-28.7667,114.6,55.81,76,0,12.66,clear sky,2022-07-25 01:56:07
185,Luderitz,NA,-26.6481,15.1594,67.14,43,0,8.25,clear sky,2022-07-25 01:56:03
186,Kargasok,RU,59.0556,80.8572,53.15,98,100,5.93,light rain,2022-07-25 01:56:08
187,Nanortalik,GL,60.1432,-45.2371,46.22,87,100,3.6,light rain,2022-07-25 01:56:09
188,Deputatskiy,RU,69.3,139.9,66.67,48,99,6.93,overcast clouds,2022-07-25 01:56:10
189,Qasigiannguit,GL,68.8193,-51.1922,36.77,98,99,1.45,overcast clouds,2022-07-25 01:56:10
190,Kolarovo,SK,47.9229,17.9847,67.1,48,4,3.62,clear sky,2022-07-25 01:56:11
191,Formosa,AR,-26.1775,-58.1781,71.58,83,0,9.22,clear sky,2022-07-25 01:56:11
192,College,US,64.8569,-147.8028,75.07,32,0,6.91,clear sky,2022-07-25 01:56:12
193,Road Town,VG,18.4167,-64.6167,82.44,78,20,14.97,few clouds,2022-07-25 01:56:12
194,Odienne,CI,9.51,-7.5692,69.53,98,100,2.8,light rain,2022-07-25 01:56:13
195,North Bend,US,43.4065,-124.2243,78.24,87,40,28.77,scattered clouds,2022-07-25 01:56:13
196,Belaya Gora,RU,68.5333,146.4167,74.93,30,29,6.02,scattered clouds,2022-07-25 01:56:14
197,Port Moresby,PG,-9.4431,147.1797,85.42,66,40,13.8,haze,2022-07-25 01:56:15
198,Wilmington,US,34.2257,-77.9447,80.01,83,36,1.99,scattered clouds,2022-07-25 01:56:16
199,Dispur,IN,26.1425,91.7889,80.55,89,100,1.7,heavy intensity rain,2022-07-25 01:56:17
200,Asau,RO,46.4333,26.4,65.32,93,94,3.2,overcast clouds,2022-07-25 01:56:17
201,Pisco,PE,-13.7,-76.2167,60.85,88,0,6.91,clear sky,2022-07-25 01:54:40
202,Corpus Christi,US,27.8006,-97.3964,87.98,79,40,16.11,scattered clouds,2022-07-25 01:56:18
203,Buckeye,US,33.3703,-112.5838,100.81,35,7,10.36,clear sky,2022-07-25 01:55:54
204,Cayenne,GF,4.9333,-52.3333,83.08,1,0,1.99,clear sky,2022-07-25 01:56:20
205,Leua,SK,48.2156,18.6071,66.49,62,6,4.41,clear sky,2022-07-25 01:56:20
206,Elk,PL,53.8282,22.3647,54.75,97,94,4.81,overcast clouds,2022-07-25 01:55:17
207,Hithadhoo,MV,-0.6,73.0833,81.86,73,83,8.28,broken clouds,2022-07-25 01:52:52
208,Talara,PE,-4.5772,-81.2719,63.86,93,48,15.28,scattered clouds,2022-07-25 01:56:21
209,Touros,BR,-5.1989,-35.4608,73.99,72,75,16.82,broken clouds,2022-07-25 01:56:22
210,Port Hawkesbury,CA,45.6169,-61.3485,79.72,66,0,5.75,clear sky,2022-07-25 01:56:23
211,Dikson,RU,73.5069,80.5464,48.58,99,100,6.24,light rain,2022-07-25 01:55:17
212,Jardim,BR,-21.4803,-56.1381,73.38,40,40,2.24,scattered clouds,2022-07-25 01:55:13
213,Vakhrushev,RU,48.9833,142.9667,65.43,82,79,6.98,broken clouds,2022-07-25 01:56:24
214,Puerto Maldonado,PE,-12.6,-69.1833,72.88,87,25,1.23,scattered clouds,2022-07-25 01:56:25
215,Bambous Virieux,MU,-20.3428,57.7575,64.65,88,75,3.44,broken clouds,2022-07-25 01:56:25
216,Bangkalan,ID,-7.0455,112.7351,76.95,63,22,10.29,few clouds,2022-07-25 01:56:26
217,Saint Anthony,US,45.0205,-93.218,73.65,55,0,13.8,clear sky,2022-07-25 01:51:44
218,Alofi,NU,-19.0595,-169.9187,75.09,60,74,17.27,broken clouds,2022-07-25 01:56:27
219,Mahur,IN,25.1667,93.1167,71.83,95,99,1.74,overcast clouds,2022-07-25 01:56:27
220,Nara,JP,34.6851,135.8049,92.97,38,100,0.85,overcast clouds,2022-07-25 01:56:28
221,Moche,PE,-8.1711,-79.0092,60.98,94,100,10.36,mist,2022-07-25 01:56:29
222,Hudson Bay,CA,52.85,-102.3842,62.83,71,62,5.19,broken clouds,2022-07-25 01:55:46
223,Cabo San Lucas,MX,22.8909,-109.9124,85.6,75,15,5.01,few clouds,2022-07-25 01:55:47
224,Torbay,CA,47.6666,-52.7314,72.37,74,20,18.41,few clouds,2022-07-25 01:52:25
225,Tuatapere,NZ,-46.1333,167.6833,46.09,72,74,3.89,broken clouds,2022-07-25 01:56:30
226,Baykit,RU,61.67,96.37,66.09,55,74,3.83,broken clouds,2022-07-25 01:55:46
227,San Joaquin,US,37.9333,-121.3011,98.53,33,0,9.8,clear sky,2022-07-25 01:56:31
228,Beringovskiy,RU,63.05,179.3167,45.12,77,100,14.36,overcast clouds,2022-07-25 01:56:32
229,Clyde River,CA,70.4692,-68.5914,43.03,100,100,8.05,overcast clouds,2022-07-25 01:56:32
230,Soure,BR,-0.7167,-48.5233,79.36,83,35,9.71,scattered clouds,2022-07-25 01:56:33
231,Nemuro,JP,43.3236,145.575,64.18,88,5,2.48,clear sky,2022-07-25 01:56:34
232,Bergen,NO,60.392,5.328,64.15,81,75,16.11,light rain,2022-07-25 01:54:22
233,Poli,TZ,-3.3333,36.8,51.24,92,42,2.17,scattered clouds,2022-07-25 01:56:35
234,Pompeia,BR,-22.1086,-50.1717,65.44,46,86,5.06,overcast clouds,2022-07-25 01:56:35
235,Hualmay,PE,-11.0964,-77.6139,62.2,84,36,10.58,scattered clouds,2022-07-25 01:56:36
236,Pithiviers,FR,48.1667,2.25,73.42,57,64,7.0,broken clouds,2022-07-25 01:56:36
237,Bilibino,RU,68.0546,166.4372,59.61,43,37,13.11,scattered clouds,2022-07-25 01:56:37
238,Buldana,IN,20.5333,76.1833,71.65,88,100,7.99,overcast clouds,2022-07-25 01:56:37
239,Kalmar,SE,56.6616,16.3616,59.97,89,100,1.99,overcast clouds,2022-07-25 01:56:38
240,Fortuna,US,40.5982,-124.1573,62.92,77,31,1.01,scattered clouds,2022-07-25 01:56:39
241,Ilulissat,GL,69.2167,-51.1,37.54,97,92,1.77,overcast clouds,2022-07-25 01:54:32
242,Vila Franca Do Campo,PT,37.7167,-25.4333,75.2,88,41,2.86,scattered clouds,2022-07-25 01:56:42
243,Arlit,NE,18.7369,7.3853,94.73,21,5,2.8,clear sky,2022-07-25 01:56:43
244,Buin,CL,-33.7333,-70.75,55.44,93,100,0.98,overcast clouds,2022-07-25 01:56:43
245,Sibu,MY,2.3,111.8167,80.91,78,40,5.99,scattered clouds,2022-07-25 01:56:44
246,Bud,US,39.447,-86.1758,77.49,93,100,5.17,overcast clouds,2022-07-25 01:56:45
247,Northam,GB,51.0333,-4.2167,61.39,95,84,20.11,broken clouds,2022-07-25 01:56:45
248,Cairns,AU,-16.9167,145.7667,81.1,62,40,12.66,scattered clouds,2022-07-25 01:55:59
249,Te Anau,NZ,-45.4167,167.7167,44.85,72,98,2.46,overcast clouds,2022-07-25 01:56:46
250,Solnechnyy,RU,50.7214,136.6319,81.63,50,1,5.17,clear sky,2022-07-25 01:56:47
251,Grand Gaube,MU,-20.0064,57.6608,64.8,69,4,11.18,clear sky,2022-07-25 01:55:58
252,Price,US,39.5994,-110.8107,72.12,57,100,2.48,overcast clouds,2022-07-25 01:55:47
253,Twentynine Palms,US,34.1356,-116.0542,94.86,31,60,11.59,broken clouds,2022-07-25 01:56:48
254,Visby,SE,57.6409,18.296,65.82,82,56,6.91,broken clouds,2022-07-25 01:56:49
255,Atar,MR,20.5169,-13.0499,91.02,40,5,7.87,clear sky,2022-07-25 01:52:54
256,Severo-Kurilsk,RU,50.6789,156.125,51.6,97,100,16.75,light rain,2022-07-25 01:56:50
257,Dobryanka,RU,58.4619,56.4165,67.03,92,81,2.95,broken clouds,2022-07-25 01:56:51
258,Ruiz,MX,21.95,-105.15,78.73,88,89,3.76,overcast clouds,2022-07-25 01:56:52
259,Wanaka,NZ,-44.7,169.15,35.11,91,100,3.27,overcast clouds,2022-07-25 01:56:52
260,Kavieng,PG,-2.5744,150.7967,84.7,71,7,10.45,clear sky,2022-07-25 01:52:20
261,Ostrovnoy,RU,68.0531,39.5131,49.66,92,100,11.41,overcast clouds,2022-07-25 01:56:53
262,Zhangye,CN,38.9342,100.4517,84.96,20,0,0.58,clear sky,2022-07-25 01:56:55
263,Kigorobya,UG,1.6162,31.3089,65.39,85,85,1.68,light rain,2022-07-25 01:56:56
264,Atbasar,KZ,51.8,68.3333,70.9,52,1,3.85,clear sky,2022-07-25 01:56:56
265,Mulchen,CL,-37.7167,-72.2333,50.34,98,100,2.39,moderate rain,2022-07-25 01:56:57
266,Belyy Yar,RU,53.6039,91.3903,60.85,77,0,6.71,clear sky,2022-07-25 01:56:57
267,Shitanjing,CN,39.2342,106.3439,79.68,34,95,9.13,overcast clouds,2022-07-25 01:56:58
268,Atambua,ID,-9.1061,124.8925,78.93,45,37,2.15,scattered clouds,2022-07-25 01:56:59
269,Vanavara,RU,60.34,102.2797,71.15,54,0,3.4,clear sky,2022-07-25 01:54:20
270,Oeiras,BR,-7.0253,-42.1311,75.56,42,47,7.34,scattered clouds,2022-07-25 01:57:00
271,Rockland,US,41.1668,-74.0496,89.46,61,100,1.01,overcast clouds,2022-07-25 01:57:00
272,Carballo,ES,43.213,-8.691,65.86,92,50,2.37,scattered clouds,2022-07-25 01:57:01
273,Lexington Park,US,38.2668,-76.4538,87.85,80,0,5.75,clear sky,2022-07-25 01:53:00
274,Bonthe,SL,7.5264,-12.505,74.82,88,100,9.06,light rain,2022-07-25 01:57:02
275,Gari,RU,59.4307,62.3497,64.83,89,35,4.59,scattered clouds,2022-07-25 01:57:03
276,Iqaluit,CA,63.7506,-68.5145,44.33,93,40,3.44,scattered clouds,2022-07-25 01:57:03
277,Mamontovo,RU,52.7055,81.6244,61.68,64,69,9.04,broken clouds,2022-07-25 01:57:04
278,Waingapu,ID,-9.6567,120.2641,80.56,52,48,13.18,scattered clouds,2022-07-25 01:55:56
279,Pagudpud,PH,18.5616,120.7868,89.11,59,5,3.04,clear sky,2022-07-25 01:57:05
280,Yarmouth,US,41.7057,-70.2286,79.14,92,31,4.0,scattered clouds,2022-07-25 01:57:06
281,Yulara,AU,-25.2406,130.9889,61.27,43,0,14.7,clear sky,2022-07-25 01:57:06
282,Lindome,SE,57.5667,12.0833,65.66,85,75,11.99,broken clouds,2022-07-25 01:57:07
283,Lagoa,PT,39.05,-27.9833,72.82,91,0,9.46,clear sky,2022-07-25 01:57:08
284,Tromso,NO,69.6496,18.957,48.22,81,75,5.75,broken clouds,2022-07-25 01:57:08
285,Tres Palos,MX,18.1833,-101.6167,75.04,93,91,3.8,overcast clouds,2022-07-25 01:57:09
286,Mehamn,NO,71.0357,27.8492,49.91,81,72,9.37,broken clouds,2022-07-25 01:53:46
287,Saint-Denis,FR,48.9167,2.3333,78.12,61,0,5.75,clear sky,2022-07-25 01:57:10
288,Makokou,GA,0.5738,12.8642,68.49,98,64,4.59,light rain,2022-07-25 01:57:11
289,Tagusao,PH,9.1924,117.8141,85.44,67,31,2.3,scattered clouds,2022-07-25 01:57:12
290,Santa Pola,ES,38.1917,-0.5658,80.65,82,40,4.61,scattered clouds,2022-07-25 01:57:12
291,Bull Savanna,JM,17.8868,-77.5902,77.52,82,100,6.6,overcast clouds,2022-07-25 01:57:13
292,Kathmandu,NP,27.7167,85.3167,70.02,94,75,2.3,broken clouds,2022-07-25 01:57:13
293,Najran,SA,17.4924,44.1277,74.05,67,99,8.77,overcast clouds,2022-07-25 01:57:14
294,Sola,VU,-13.8833,167.55,80.56,77,8,7.43,clear sky,2022-07-25 01:57:14
295,Padang,ID,-0.9492,100.3543,75.25,94,100,2.08,overcast clouds,2022-07-25 01:57:15
296,Linxia,CN,35.6003,103.2064,73.92,49,0,0.49,clear sky,2022-07-25 01:57:15
297,Dengzhou,CN,37.8086,120.7508,84.0,60,0,8.16,clear sky,2022-07-25 01:57:16
298,Manubul,PH,5.4732,120.7986,83.3,72,36,5.53,scattered clouds,2022-07-25 01:57:16
299,Shenjiamen,CN,29.9576,122.298,81.91,82,35,6.42,scattered clouds,2022-07-25 01:57:17
300,Mayo,US,38.8876,-76.5119,88.09,85,58,5.99,broken clouds,2022-07-25 01:57:17
301,Yar-Sale,RU,66.8333,70.8333,51.08,77,91,11.54,overcast clouds,2022-07-25 01:57:18
302,Ewa Beach,US,21.3156,-158.0072,82.44,62,4,18.81,clear sky,2022-07-25 01:57:19
303,Arrecife,ES,28.963,-13.5477,75.18,83,0,4.61,clear sky,2022-07-25 01:57:20
304,Piacabucu,BR,-10.4056,-36.4344,72.32,77,100,9.95,overcast clouds,2022-07-25 01:57:20
305,Sioux Lookout,CA,50.1001,-91.917,59.07,67,75,13.8,broken clouds,2022-07-25 01:57:21
306,Klyuchi,RU,52.2667,79.1667,64.33,59,45,7.52,scattered clouds,2022-07-25 01:57:21
307,Elko,US,41.0002,-115.5012,91.74,9,13,13.0,few clouds,2022-07-25 01:57:22
308,Xining,CN,36.6167,101.7667,67.14,51,0,1.99,clear sky,2022-07-25 01:53:33
309,Jaguarari,BR,-10.2639,-40.1958,62.65,86,100,9.28,overcast clouds,2022-07-25 01:57:23
310,Bereda,ES,43.2686,-7.5406,52.81,97,86,1.43,overcast clouds,2022-07-25 01:57:24
311,Paralimni,CY,35.0375,33.9833,85.12,42,0,11.99,clear sky,2022-07-25 01:57:25
312,Kendari,ID,-3.945,122.4989,82.98,60,16,1.68,few clouds,2022-07-25 01:57:25
313,Spas-Demensk,RU,54.4122,34.0226,60.82,99,100,4.52,light rain,2022-07-25 01:57:26
314,Ampanihy,MG,-24.7,44.75,59.95,94,0,2.55,clear sky,2022-07-25 01:57:26
315,Srinivaspur,IN,13.3333,78.2167,71.28,79,100,13.89,overcast clouds,2022-07-25 01:57:27
316,Nampula,MZ,-15.1165,39.2666,64.35,94,40,3.44,scattered clouds,2022-07-25 01:57:28
317,Lengshuijiang,CN,27.6881,111.4294,91.63,60,2,3.83,clear sky,2022-07-25 01:57:28
318,Wana,PK,32.2989,69.5725,72.52,80,99,2.62,overcast clouds,2022-07-25 01:57:29
319,Constitucion,CL,-35.3333,-72.4167,53.04,94,100,9.04,overcast clouds,2022-07-25 01:57:17
320,Kirriemuir,GB,56.674,-3.0034,58.24,95,66,5.3,broken clouds,2022-07-25 01:57:30
321,Holetown,BB,13.1867,-59.6381,81.16,92,44,12.28,scattered clouds,2022-07-25 01:57:30
322,Codrington,AU,-38.2667,141.9667,54.36,91,100,17.76,overcast clouds,2022-07-25 01:57:31
323,Shar,KZ,49.5886,81.0453,67.57,43,2,6.71,clear sky,2022-07-25 01:57:31
324,Broome,US,42.2506,-75.833,74.66,83,99,5.99,overcast clouds,2022-07-25 01:57:32
325,Rosario Do Sul,BR,-30.2583,-54.9142,68.65,89,100,6.62,overcast clouds,2022-07-25 01:57:32
326,Hamilton,US,39.1834,-84.5333,81.23,88,0,11.5,moderate rain,2022-07-25 01:57:33
327,Vila Do Maio,CV,15.1333,-23.2167,79.59,86,100,16.46,overcast clouds,2022-07-25 01:57:34
328,Todos Santos,MX,23.45,-110.2167,88.05,88,48,3.98,scattered clouds,2022-07-25 01:57:34
329,Shimoda,JP,34.6667,138.95,91.11,74,97,5.41,overcast clouds,2022-07-25 01:57:35
330,Pontivy,FR,48.0,-3.0,66.27,96,100,10.07,overcast clouds,2022-07-25 01:57:35
331,Jaguaruna,BR,-28.615,-49.0256,64.8,90,93,2.55,overcast clouds,2022-07-25 01:57:36
332,Karla,EE,59.3723,24.9275,64.36,86,0,8.05,clear sky,2022-07-25 01:57:36
333,Balclutha,NZ,-46.2339,169.75,43.63,92,100,1.3,overcast clouds,2022-07-25 01:57:37
334,Norden,DE,53.6,7.2,70.95,78,100,6.71,overcast clouds,2022-07-25 01:57:37
335,Bodden Town,KY,19.2833,-81.25,84.2,74,20,6.91,few clouds,2022-07-25 01:57:38
336,Isangel,VU,-19.55,169.2667,84.31,79,75,4.61,broken clouds,2022-07-25 01:57:38
337,Marovoay,MG,-16.1,46.6333,62.92,74,5,2.64,clear sky,2022-07-25 01:57:39
338,Krasnogvardeyets,RU,52.6804,52.3635,66.74,78,94,3.49,overcast clouds,2022-07-25 01:57:39
339,Demyansk,RU,57.643,32.466,57.02,99,100,3.4,overcast clouds,2022-07-25 01:57:40
340,Jizan,SA,17.3333,42.6667,83.34,64,100,5.1,overcast clouds,2022-07-25 01:57:40
341,Miandrivazo,MG,-19.5167,45.4667,64.15,80,20,0.92,few clouds,2022-07-25 01:57:41
342,Synya,RU,65.3718,58.0387,50.11,74,100,3.83,overcast clouds,2022-07-25 01:57:41
343,Airai,TL,-8.9266,125.4092,68.85,41,91,3.15,overcast clouds,2022-07-25 01:57:42
344,Sergeyevka,KZ,53.88,67.4158,67.91,68,8,3.31,clear sky,2022-07-25 01:57:42
345,Husavik,IS,66.0449,-17.3389,46.0,89,60,2.17,broken clouds,2022-07-25 01:57:43
346,Mamu Kanjan,PK,30.8333,72.8,86.81,69,99,8.28,light rain,2022-07-25 01:57:43
347,Banjar,ID,-8.19,114.9675,80.6,55,29,2.62,scattered clouds,2022-07-25 01:57:44
348,Carlos Chagas,BR,-17.7031,-40.7664,65.03,88,100,3.38,overcast clouds,2022-07-25 01:57:45
349,Astana,KZ,51.1801,71.446,64.35,55,0,4.47,clear sky,2022-07-25 01:57:45
350,Nouadhibou,MR,20.931,-17.0347,76.98,88,38,10.36,scattered clouds,2022-07-25 01:57:46
351,Winnemucca,US,40.973,-117.7357,91.53,9,0,13.53,clear sky,2022-07-25 01:57:46
352,Ambon,ID,-3.6954,128.1814,80.17,79,94,11.16,overcast clouds,2022-07-25 01:57:20
353,Benicarlo,ES,40.4165,0.4271,91.9,75,0,2.06,clear sky,2022-07-25 01:57:47
354,Lavrentiya,RU,65.5833,-171.0,42.55,89,100,9.62,light rain,2022-07-25 01:55:26
355,Hami,CN,42.8,93.45,87.28,22,100,25.05,overcast clouds,2022-07-25 01:57:49
356,Roma,US,43.2128,-75.4557,76.66,86,100,2.37,overcast clouds,2022-07-25 01:53:45
357,Dorado,PR,18.4588,-66.2677,81.97,89,1,10.67,clear sky,2022-07-25 01:57:50
358,Hobyo,SO,5.3505,48.5268,74.57,83,24,21.27,few clouds,2022-07-25 01:56:55
359,Inirida,CO,3.8653,-67.9239,70.63,98,78,1.41,broken clouds,2022-07-25 01:57:51
360,Khuzdar,PK,27.7384,66.6434,72.84,88,100,7.31,overcast clouds,2022-07-25 01:57:51
361,Teguise,ES,29.0605,-13.564,71.82,83,0,4.61,clear sky,2022-07-25 01:57:52
362,Tessalit,ML,20.1986,1.0114,89.44,29,10,4.76,clear sky,2022-07-25 01:57:53
363,Huarmey,PE,-10.0681,-78.1522,63.52,85,85,10.69,overcast clouds,2022-07-25 01:57:53
364,Mombasa,KE,-4.0547,39.6636,71.58,84,30,9.73,scattered clouds,2022-07-25 01:57:54
365,Makakilo City,US,21.3469,-158.0858,81.01,62,11,17.47,few clouds,2022-07-25 01:57:54
366,Linares,CL,-35.85,-71.6,51.55,92,100,2.46,moderate rain,2022-07-25 01:57:55
367,Czluchow,PL,53.6672,17.3588,56.77,74,54,5.68,broken clouds,2022-07-25 01:57:56
368,Venancio Aires,BR,-29.6064,-52.1919,71.26,93,85,2.37,overcast clouds,2022-07-25 01:57:57
369,Goderich,CA,43.7501,-81.7165,74.91,88,25,14.97,scattered clouds,2022-07-25 01:57:57
370,Margate,GB,51.3813,1.3862,66.9,82,100,3.0,overcast clouds,2022-07-25 01:57:58
371,Pakxe,LA,15.1167,105.7833,83.91,75,24,1.88,few clouds,2022-07-25 01:57:58
372,Tura,IN,25.5198,90.2201,74.26,96,100,2.42,overcast clouds,2022-07-25 01:57:59
373,Marsa Matruh,EG,31.3525,27.2453,77.2,69,0,8.05,clear sky,2022-07-25 01:57:59
374,Manacapuru,BR,-3.2997,-60.6206,81.19,67,95,4.65,overcast clouds,2022-07-25 01:58:00
375,Berdigestyakh,RU,62.0989,126.6992,79.36,46,8,5.79,clear sky,2022-07-25 01:58:00
376,San Patricio,US,28.017,-97.5169,87.84,69,0,15.57,clear sky,2022-07-25 01:54:33
377,Havre-Saint-Pierre,CA,50.2334,-63.5986,62.96,88,0,4.61,clear sky,2022-07-25 01:58:01
378,Ponta Delgada,PT,37.7333,-25.6667,75.51,94,40,4.61,scattered clouds,2022-07-25 01:58:02
379,Novoagansk,RU,61.9449,76.6625,57.51,72,2,8.48,clear sky,2022-07-25 01:58:02
380,Methoni,GR,36.8197,21.7049,81.21,59,0,13.73,clear sky,2022-07-25 01:58:03
381,Payo,ID,-3.7508,103.6372,79.21,85,99,1.34,overcast clouds,2022-07-25 01:58:03
382,Castelo Do Piaui,BR,-5.3222,-41.5525,83.88,42,94,5.32,overcast clouds,2022-07-25 01:58:04
383,Yelizovo,RU,53.1873,158.3805,55.54,100,100,7.0,overcast clouds,2022-07-25 01:58:04
384,Sept-Iles,CA,50.2001,-66.3821,63.12,94,100,4.61,overcast clouds,2022-07-25 01:58:05
385,Rosarito,MX,32.3333,-117.0333,75.67,76,72,5.61,broken clouds,2022-07-25 01:58:05
386,Codajas,BR,-3.8367,-62.0569,78.37,67,51,2.73,broken clouds,2022-07-25 01:58:06
387,Lake Havasu City,US,34.4839,-114.3224,102.22,25,0,8.05,clear sky,2022-07-25 01:56:33
388,Tabou,CI,4.423,-7.3528,73.69,78,100,5.06,overcast clouds,2022-07-25 01:58:07
389,Bondowoso,ID,-7.9135,113.8214,78.33,54,40,3.22,scattered clouds,2022-07-25 01:58:08
390,Murdochville,CA,48.9583,-65.5006,54.48,96,100,7.52,light rain,2022-07-25 01:58:08
391,Henties Bay,NA,-22.116,14.2845,54.82,86,0,4.05,clear sky,2022-07-25 01:58:09
392,Hakui,JP,36.8833,136.7833,89.69,73,98,1.19,overcast clouds,2022-07-25 01:58:09
393,Binabalian,PH,16.4202,119.9279,84.81,76,41,6.15,scattered clouds,2022-07-25 01:58:10
394,Rawson,AR,-43.3002,-65.1023,41.38,76,70,8.52,broken clouds,2022-07-25 01:55:36
395,Katherine,AU,-14.4667,132.2667,84.52,32,8,8.05,clear sky,2022-07-25 01:58:11
396,Ravar,IR,31.2656,56.8055,84.52,19,0,1.25,clear sky,2022-07-25 01:58:11
397,San Cristobal,VE,7.7669,-72.225,71.78,92,13,2.95,few clouds,2022-07-25 01:56:07
398,Manokwari,ID,-0.8667,134.0833,83.17,71,86,7.0,overcast clouds,2022-07-25 01:58:12
399,Mosquera,CO,4.7059,-74.2302,55.49,94,40,2.3,scattered clouds,2022-07-25 01:53:20
400,Sur,OM,22.5667,59.5289,86.65,66,100,8.43,overcast clouds,2022-07-25 01:58:13
401,Sagada,PH,17.084,120.8996,76.48,53,95,0.96,overcast clouds,2022-07-25 01:58:14
402,Lata,PT,40.1629,-8.3327,56.1,90,1,2.13,clear sky,2022-07-25 01:58:14
403,Sisophon,KH,13.5859,102.9737,83.95,72,48,3.87,scattered clouds,2022-07-25 01:58:15
404,Llanes,ES,43.4198,-4.7549,67.26,84,2,7.16,clear sky,2022-07-25 01:58:16
405,Egvekinot,RU,66.3167,-179.1667,42.93,62,99,1.32,overcast clouds,2022-07-25 01:57:16
406,Suoyarvi,RU,62.0833,32.35,55.51,96,85,6.35,overcast clouds,2022-07-25 01:58:17
407,Mahebourg,MU,-20.4081,57.7,64.69,88,75,3.44,broken clouds,2022-07-25 01:54:26
408,Sao Filipe,CV,14.8961,-24.4956,78.08,83,91,9.95,light rain,2022-07-25 01:58:18
409,Umm Lajj,SA,25.0213,37.2685,82.2,85,100,14.76,overcast clouds,2022-07-25 01:58:19
410,Kulhudhuffushi,MV,6.6221,73.07,80.92,80,54,10.63,broken clouds,2022-07-25 01:58:01
411,Ribeirao Preto,BR,-21.1775,-47.8103,69.8,49,0,5.75,clear sky,2022-07-25 01:58:20
412,Longyearbyen,SJ,78.2186,15.6401,46.24,93,75,8.05,broken clouds,2022-07-25 01:58:20
413,Itacoatiara,BR,-3.1431,-58.4442,77.07,67,12,1.88,few clouds,2022-07-25 01:58:21
414,Abu Dhabi,AE,24.4667,54.3667,91.51,81,0,3.44,clear sky,2022-07-25 01:54:24
415,Ratnagiri,IN,16.9833,73.3,78.66,85,100,8.46,overcast clouds,2022-07-25 01:58:22
416,Lompoc,US,34.6391,-120.4579,72.01,77,100,10.36,overcast clouds,2022-07-25 01:58:22
417,Gat,IL,31.61,34.7642,76.41,100,0,3.44,clear sky,2022-07-25 01:58:23
418,Misratah,LY,32.3754,15.0925,80.85,64,0,8.46,clear sky,2022-07-25 01:58:23
419,Mnogovershinnyy,RU,53.9353,139.9242,74.62,61,9,3.83,light rain,2022-07-25 01:58:24
420,Mikhaylovka,RU,50.06,43.2379,64.71,94,84,4.54,broken clouds,2022-07-25 01:58:25
421,Susanino,RU,58.1461,41.5872,62.67,81,24,2.28,few clouds,2022-07-25 01:58:25
422,Tual,ID,-5.6667,132.75,79.74,85,100,17.13,overcast clouds,2022-07-25 01:58:26
423,Santarem,BR,-2.4431,-54.7083,77.13,100,0,3.44,clear sky,2022-07-25 01:58:27
424,Iracoubo,GF,5.4802,-53.2011,77.88,89,85,8.39,overcast clouds,2022-07-25 01:58:29
425,Korla,CN,41.7597,86.1469,91.36,18,57,21.27,broken clouds,2022-07-25 01:56:52
426,Norsup,VU,-16.0667,167.3833,82.0,76,27,4.0,scattered clouds,2022-07-25 01:58:32
427,Karatau,KZ,43.1667,70.4667,79.54,26,0,3.98,clear sky,2022-07-25 01:58:32
428,Kedrovyy,RU,56.1667,91.8167,55.87,99,100,7.72,light rain,2022-07-25 01:57:17
429,Port-Gentil,GA,-0.7193,8.7815,73.54,76,97,6.78,overcast clouds,2022-07-25 01:58:33
430,Cherskiy,RU,68.75,161.3,63.5,36,7,7.27,clear sky,2022-07-25 01:57:28
431,Svetlogorsk,BY,52.6333,29.7333,55.94,98,11,8.41,few clouds,2022-07-25 01:58:35
432,Hastings,GB,50.8552,0.5729,66.92,89,93,15.03,overcast clouds,2022-07-25 01:58:35
433,Urengoy,RU,65.9667,78.3667,53.22,77,100,18.01,overcast clouds,2022-07-25 01:58:36
434,Sibolga,ID,1.7427,98.7792,79.63,81,97,2.19,overcast clouds,2022-07-25 01:58:36
435,Vila,PT,42.0304,-8.1588,52.68,89,20,2.42,few clouds,2022-07-25 01:58:37
436,Sfantu Gheorghe,RO,45.8667,25.7833,66.92,84,86,1.79,overcast clouds,2022-07-25 01:56:03
437,Talnakh,RU,69.4865,88.3972,58.21,66,100,32.7,overcast clouds,2022-07-25 01:58:39
438,Yanliang,CN,34.6592,109.2292,81.59,57,8,6.11,clear sky,2022-07-25 01:58:39
439,Bambanglipuro,ID,-7.95,110.2833,78.04,63,97,15.61,overcast clouds,2022-07-25 01:58:40
440,Iskateley,RU,67.6803,53.1512,49.24,90,100,14.25,overcast clouds,2022-07-25 01:58:41
441,Atherton,GB,53.5237,-2.4935,62.26,90,82,1.99,broken clouds,2022-07-25 01:58:41
442,Lumeje,AO,-11.55,20.7833,58.8,40,0,5.23,clear sky,2022-07-25 01:58:42
443,Nyrob,RU,60.733,56.7202,58.39,98,93,4.56,overcast clouds,2022-07-25 01:58:42
444,San Lorenzo,PY,-25.3333,-57.5333,79.59,47,0,8.99,clear sky,2022-07-25 01:58:43
445,Varzea Grande,BR,-15.6467,-56.1325,73.27,64,0,0.0,clear sky,2022-07-25 01:58:43
446,Saint-Augustin,CA,51.226,-58.6502,67.19,68,21,6.06,few clouds,2022-07-25 01:57:14
447,Ryotsu,JP,38.0833,138.4333,81.0,67,47,2.77,scattered clouds,2022-07-25 01:58:44
448,Guarapari,BR,-20.6667,-40.4975,66.88,89,4,4.99,clear sky,2022-07-25 01:58:45
449,Fuxin,CN,42.0156,121.6589,83.61,66,99,4.88,overcast clouds,2022-07-25 01:58:45
450,Aborlan,PH,9.4352,118.5492,86.07,68,72,4.68,broken clouds,2022-07-25 01:58:46
451,Puerto El Triunfo,SV,13.2833,-88.55,78.51,76,96,2.93,overcast clouds,2022-07-25 01:58:47
452,Marsabit,KE,2.3284,37.9899,58.33,85,66,18.07,broken clouds,2022-07-25 01:58:47
453,Dunedin,NZ,-45.8742,170.5036,47.89,85,100,12.5,overcast clouds,2022-07-25 01:58:48
454,Garissa,KE,-0.4536,39.6401,70.79,82,49,14.88,scattered clouds,2022-07-25 01:58:48
455,Zhizdra,RU,53.746,34.7395,61.9,97,100,3.47,light rain,2022-07-25 01:58:49
456,Caravelas,BR,-17.7125,-39.2481,69.93,83,100,5.37,overcast clouds,2022-07-25 01:58:49
457,Parintins,BR,-2.6283,-56.7358,76.5,74,7,2.33,clear sky,2022-07-25 01:58:50
458,Sao Joao Da Barra,BR,-21.6403,-41.0511,71.04,84,3,11.92,clear sky,2022-07-25 01:58:51
459,Namibe,AO,-15.1961,12.1522,62.83,87,0,4.81,clear sky,2022-07-25 01:58:51
460,Kruisfontein,ZA,-34.0033,24.7314,50.88,81,69,3.2,broken clouds,2022-07-25 01:58:52
461,Ahipara,NZ,-35.1667,173.1667,62.87,96,100,19.08,overcast clouds,2022-07-25 01:58:52
462,Jamkhandi,IN,16.5167,75.3,73.38,81,100,9.62,overcast clouds,2022-07-25 01:58:53
463,Yining,CN,29.0361,114.5636,93.58,59,49,1.83,scattered clouds,2022-07-25 01:58:53
464,Bethel,US,41.3712,-73.414,84.07,73,95,4.38,overcast clouds,2022-07-25 01:55:29
465,Lefka,CY,35.1106,32.8506,79.23,37,0,0.74,clear sky,2022-07-25 01:58:54
466,Kalmunai,LK,7.4167,81.8167,81.93,67,93,2.08,overcast clouds,2022-07-25 01:58:55
467,Inongo,CD,-1.95,18.2667,66.69,95,78,3.06,light rain,2022-07-25 01:55:30
468,Berlevag,NO,70.8578,29.0864,49.95,87,100,9.22,overcast clouds,2022-07-25 01:58:56
469,Bunbury,AU,-33.3333,115.6333,60.91,68,62,19.1,light rain,2022-07-25 01:58:56
470,Chimore,BO,-16.9833,-65.1333,74.21,71,37,2.8,scattered clouds,2022-07-25 01:58:57
471,Seymchan,RU,62.8833,152.4333,69.17,41,36,2.33,scattered clouds,2022-07-25 01:58:57
472,Dagshai,IN,30.8833,77.05,63.5,89,100,3.22,moderate rain,2022-07-25 01:58:58
473,Christchurch,NZ,-43.5333,172.6333,45.48,93,75,4.61,broken clouds,2022-07-25 01:58:59
474,Maniitsoq,GL,65.4167,-52.9,44.83,82,0,11.43,clear sky,2022-07-25 01:59:00
475,Camacha,PT,33.0833,-16.3333,69.22,83,20,5.75,few clouds,2022-07-25 01:59:00
476,Alekseyevka,RU,50.6309,38.6903,62.94,88,6,4.03,light rain,2022-07-25 01:59:01
477,Lawrenceburg,US,38.0373,-84.8966,83.68,83,76,9.57,broken clouds,2022-07-25 01:58:59
478,Tokur,RU,53.1333,132.9,79.11,44,7,5.5,clear sky,2022-07-25 01:59:02
479,Port Blair,IN,11.6667,92.75,80.64,89,40,2.3,scattered clouds,2022-07-25 01:59:03
480,Aswan,EG,24.0934,32.907,83.5,28,0,6.91,clear sky,2022-07-25 01:57:14
481,Ketchikan,US,55.3422,-131.6461,57.81,98,100,4.79,light rain,2022-07-25 01:59:04
482,Chapais,CA,49.7834,-74.8492,60.58,99,100,7.29,overcast clouds,2022-07-25 01:59:05
483,Poya,NC,-21.35,165.15,77.02,59,1,6.46,clear sky,2022-07-25 01:59:06
484,Temnikov,RU,54.6302,43.2148,64.2,84,100,2.93,overcast clouds,2022-07-25 01:59:06
485,Gobabis,NA,-22.45,18.9667,58.46,46,93,13.06,overcast clouds,2022-07-25 01:59:07
486,Ola,RU,59.5833,151.2833,64.15,78,99,2.17,overcast clouds,2022-07-25 01:59:08
487,Rockhampton,AU,-23.3833,150.5,69.69,60,20,9.22,few clouds,2022-07-25 01:59:09
488,Evensk,RU,61.95,159.2333,62.22,51,9,8.05,clear sky,2022-07-25 01:57:22
489,Pahasu,IN,28.1833,78.05,84.29,66,12,14.81,few clouds,2022-07-25 01:59:10
490,Abnub,EG,27.2696,31.1511,77.22,32,3,9.19,clear sky,2022-07-25 01:59:10
491,Amurzet,RU,47.6967,131.0981,72.54,78,91,5.12,overcast clouds,2022-07-25 01:59:11
492,Aksha,RU,50.2814,113.2867,62.96,92,100,5.03,overcast clouds,2022-07-25 01:59:12
493,Maniwaki,CA,46.3834,-75.966,70.18,94,1,5.75,clear sky,2022-07-25 01:57:11
494,Billings,US,45.7833,-108.5007,70.29,62,100,25.99,overcast clouds,2022-07-25 01:59:14
495,Verkhoyansk,RU,67.5447,133.385,73.42,50,0,2.57,clear sky,2022-07-25 01:59:15
496,San Antero,CO,9.3741,-75.7589,78.51,83,76,4.25,broken clouds,2022-07-25 01:59:15
497,Chato,TZ,-2.6378,31.7669,70.03,50,87,6.96,overcast clouds,2022-07-25 01:59:16
498,Indiaroba,BR,-11.5192,-37.5117,69.46,79,99,4.47,overcast clouds,2022-07-25 01:59:16
499,Kontagora,NG,10.3999,5.4695,71.89,95,100,4.0,overcast clouds,2022-07-25 01:59:17
500,Prainha,BR,-1.8,-53.48,78.22,72,35,2.66,scattered clouds,2022-07-25 01:59:17
501,Aracaju,BR,-10.9111,-37.0717,75.15,64,20,9.22,few clouds,2022-07-25 01:58:51
502,Bandarbeyla,SO,9.4942,50.8122,77.56,71,89,25.41,overcast clouds,2022-07-25 01:59:18
503,Clarksville,US,36.5298,-87.3595,87.33,67,18,6.62,few clouds,2022-07-25 01:57:25
504,Rawah,IQ,34.4816,41.9093,80.19,17,0,10.25,clear sky,2022-07-25 01:59:19
505,Kutum,SD,14.2,24.6667,78.06,53,100,10.4,overcast clouds,2022-07-25 01:59:20
506,Athabasca,CA,54.7169,-113.2854,66.61,65,100,7.58,overcast clouds,2022-07-25 01:59:20
507,Hearst,CA,49.6835,-83.6665,57.45,82,100,4.79,overcast clouds,2022-07-25 01:56:50
508,Foam Lake,CA,51.65,-103.5343,71.62,71,92,5.5,overcast clouds,2022-07-25 01:59:21
509,Villazon,BO,-22.0866,-65.5942,42.71,15,0,2.01,clear sky,2022-07-25 01:59:22
510,Saint-Paul,RE,-21.0096,55.2707,65.35,84,45,1.9,light rain,2022-07-25 01:59:23
511,Dondo,MZ,-19.6094,34.7431,60.31,92,0,3.24,clear sky,2022-07-25 01:59:24
512,Prince Rupert,CA,54.3161,-130.3201,60.89,96,100,14.97,light rain,2022-07-25 01:59:25
513,Winneba,GH,5.3511,-0.6231,72.12,90,12,8.37,few clouds,2022-07-25 01:59:25
514,Richards Bay,ZA,-28.783,32.0377,61.12,52,19,16.78,few clouds,2022-07-25 01:59:26
515,Viedma,AR,-40.8135,-62.9967,45.63,76,100,10.87,overcast clouds,2022-07-25 01:59:26
516,Lamu,KE,-2.2717,40.902,74.66,77,14,16.64,few clouds,2022-07-25 01:59:27
517,Arona,ES,28.0996,-16.681,83.91,63,0,4.61,clear sky,2022-07-25 01:59:28
518,Xichang,CN,27.8964,102.2634,71.38,84,61,1.97,broken clouds,2022-07-25 01:59:29
519,Fukue,JP,32.6881,128.8419,80.96,83,75,4.61,broken clouds,2022-07-25 01:59:30
520,Magadan,RU,59.5667,150.8,63.54,75,99,2.33,overcast clouds,2022-07-25 01:59:31
521,Okmulgee,US,35.6234,-95.9605,95.85,40,0,8.05,clear sky,2022-07-25 01:57:58
522,Medina,SA,24.4686,39.6142,93.63,27,0,11.5,clear sky,2022-07-25 01:57:16
523,Manadhoo,MV,5.7667,73.3833,81.39,76,95,11.43,overcast clouds,2022-07-25 01:59:34
524,Abu Zabad,SD,12.35,29.25,77.05,61,99,11.41,overcast clouds,2022-07-25 01:59:34
525,Panguna,PG,-6.3164,155.4848,83.89,54,30,3.6,light rain,2022-07-25 01:59:35
526,Dingle,PH,10.9995,122.6711,85.24,74,92,0.38,light rain,2022-07-25 01:55:25
527,Lundazi,ZM,-12.2929,33.1782,61.48,64,67,8.77,broken clouds,2022-07-25 01:59:36
528,Ishinomaki,JP,38.4167,141.3,78.8,85,100,1.59,overcast clouds,2022-07-25 01:59:36
529,Buala,SB,-8.145,159.5921,86.22,66,83,7.99,light rain,2022-07-25 01:59:37
530,Rock Sound,BS,24.9,-76.2,82.49,70,1,20.07,clear sky,2022-07-25 01:59:37
531,Kidal,ML,18.4411,1.4078,88.0,39,48,5.03,scattered clouds,2022-07-25 01:59:35
532,Tuy Hoa,VN,13.0833,109.3,85.51,68,10,1.5,clear sky,2022-07-25 01:59:38
533,Oksfjord,NO,70.2396,22.3479,50.18,82,94,5.55,overcast clouds,2022-07-25 01:59:39
534,Siguiri,GN,11.6667,-9.5,71.62,96,100,3.29,light rain,2022-07-25 01:59:39
535,Pochutla,MX,15.7432,-96.4661,76.82,90,87,3.69,overcast clouds,2022-07-25 01:59:40
536,Flin Flon,CA,54.7682,-101.865,64.62,56,100,4.52,overcast clouds,2022-07-25 01:59:40
537,Wattegama,LK,6.7989,81.4808,79.52,70,99,1.99,overcast clouds,2022-07-25 01:59:41
538,Biloela,AU,-24.4167,150.5,69.19,55,0,2.04,clear sky,2022-07-25 01:59:41
539,Mudgee,AU,-32.5943,149.5871,54.79,58,96,3.76,overcast clouds,2022-07-25 01:59:42
540,Bathsheba,BB,13.2167,-59.5167,81.21,92,40,10.36,scattered clouds,2022-07-25 01:59:42
541,Saint-Joseph,RE,-21.3667,55.6167,62.98,75,20,8.12,few clouds,2022-07-25 01:59:43
542,Luwuk,ID,-0.9516,122.7875,83.57,63,89,6.04,overcast clouds,2022-07-25 01:59:45
543,Shunyi,CN,40.125,116.6453,84.15,65,0,2.24,clear sky,2022-07-25 01:59:46
544,Vestmanna,FO,62.1564,-7.1664,47.32,87,75,20.71,broken clouds,2022-07-25 01:59:47
545,Dodge City,US,37.7528,-100.0171,89.22,60,100,11.01,overcast clouds,2022-07-25 01:59:47
546,Butembo,CD,0.15,29.2833,58.95,92,98,1.28,light rain,2022-07-25 01:59:48
547,Okato,NZ,-39.2,173.8833,47.68,90,99,22.01,overcast clouds,2022-07-25 01:59:49
